{
  "stations": {
    "AlexandraArms": {
      "title": "Alexandra\nArms",
      "place_id": "ChIJaVrou4hw2EcROetQMMOP12M",
      "address": "22 Gwydir St, Cambridge CB1 2LL",
      "website": "http://www.thealexcambridge.com/",
      "phone": "01223 324441",
      "position": {
        "lat": 52.20386,
        "lon": 0.139356
      }
    },
    "Alma": {
      "title": "Alma",
      "place_id": "ChIJF5v8q55w2EcRWbfRNUQNPmE",
      "address": "26 Russel Court, Cambridge, CB2 1HW",
      "website": "http://www.thealmacambridge.co.uk/",
      "phone": "01223 316722",
      "position": {
        "lat": 52.195982,
        "lon": 0.125493
      }
    },
    "Anchor": {
      "title": "Anchor",
      "place_id": "hIJocwdyrxw2EcRnogp-KBkY_o",
      "address": "Silver Street, Cambridge, CB3 9EL",
      "website": "http://www.anchorcambridge.com",
      "phone": "01223 353554",
      "position": {
        "lat": 52.201999,
        "lon": 0.115758
      }
    },
    "AncientShepherds": {
      "title": "Ancient Shepherds",
      "place_id": "ChIJI5agpzlw2EcR55ZT5vZy_ok",
      "address": "5 High St, Fen Ditton, Cambridge, CB5 8ST",
      "website": "http://www.theancientshepherds.co.uk/",
      "phone": "01223 293280",
      "position": {
        "lat": 52.220375,
        "lon": 0.172721
      }
    },
    "Architect": {
      "title": "Architect",
      "place_id": "ChIJX3Dbo7hw2EcR4iVxgX74BlU",
      "address": "43 Castle St, Cambridge, CB3 0AH",
      "website": "http://www.thearchitectcambridge.co.uk/",
      "phone": "01223 563779",
      "position": {
        "lat": 52.212078,
        "lon": 0.113155
      }
    },
    "BaronOfBeef": {
      "title": "Baron\nof Beef",
      "place_id": "ChIJVeAxW75w2EcRkM91IuEN_oU",
      "address": "19 Bridge St, Cambridge CB2 1UF",
      "website": "http://www.baronofbeef-cambridge.co.uk/",
      "phone": "01223 505022",
      "position": {
        "lat": 52.208893,
        "lon": 0.118118
      }
    },
    "BathHouse": {
      "title": "Bath House",
      "address": "3 Benet Street, Cambridge, CB2 3QN",
      "website": "http://www.bathhouse-cambridge.co.uk/",
      "phone": "01223 350969",
      "position": {
        "lat": 52.204073,
        "lon": 0.118459
      }
    },
    "BlueBallInn": {
      "title": "Blue Ball Inn",
      "address": "57 Broadway, Grantchester, Cambridge CB3 9NQ",
      "website": "http://www.blueballgrantchester.co.uk/",
      "phone": "01223 846004",
      "position": {
        "lat": 52.183303,
        "lon": 0.09408
      }
    },
    "BlueMoon": {
      "title": "Blue Moon",
      "address": "2 Norfolk St, Cambridge CB1 2LF",
      "website": "https://www.facebook.com/bluemooncambridge/",
      "phone": "01223 500238",
      "position": {
        "lat": 52.204781,
        "lon": 0.136648
      }
    },
    "Boathouse": {
      "title": "Boathouse",
      "address": "14 Chesterton Rd, Cambridge CB4 3AX",
      "website": "http://www.boathouse-cambridge.co.uk/",
      "phone": "01223 460905",
      "position": {
        "lat": 52.213719,
        "lon": 0.123523
      }
    },
    "BrewHouse": {
      "title": "Brew\nHouse",
      "address": "1 King St, Cambridge CB1 1LH",
      "website": "http://www.thecambridgebrewhouse.com/",
      "phone": "01223 855185",
      "position": {
        "lat": 52.207412,
        "lon": 0.122225
      }
    },
    "Brook": {
      "title": "Brook",
      "address": "25 Brookfields, Cambridge CB1 3NW",
      "website": "http://www.thebrookpub.co.uk/",
      "phone": "01223 566929",
      "position": {
        "lat": 52.196072,
        "lon": 0.155429
      }
    },
    "BurleighArms": {
      "title": "Burleigh\nArms",
      "address": "9-11 Newmarket Rd, Cambridge CB5 8EG",
      "website": "http://www.burleigharmscambridge.co.uk/",
      "phone": "01223 301547",
      "position": {
        "lat": 52.208184,
        "lon": 0.132854
      }
    },
    "CambridgeBlue": {
      "title": "Cambridge Blue",
      "address": "85-87 Gwydir St, Cambridge CB1 2LG",
      "website": "http://www.the-cambridgeblue.co.uk/",
      "phone": "01223 471680",
      "position": {
        "lat": 52.202328,
        "lon": 0.139173
      }
    },
    "CarltonArms": {
      "title": "Carlton Arms",
      "address": "Carlton Way, Cambridge CB4 2DF",
      "website": "http://thecarltonarmscambridge.co.uk/",
      "phone": "01223 367422",
      "position": {
        "lat": 52.222048,
        "lon": 0.114374
      }
    },
    "CarpentersArms": {
      "title": "Carpenter's Arms",
      "address": "184-186 Victoria Rd, Cambridge, CB4 3DZ",
      "website": "http://www.carpentersarmscambridge.co.uk/",
      "phone": "01223 367050",
      "position": {
        "lat": 52.21576,
        "lon": 0.114374
      }
    },
    "CastleInn": {
      "title": "Castle\nInn",
      "place_id": "ChIJoccoXsdw2EcROG63agLdFi4",
      "address": "38 Castle St, City Centre, Cambridge CB3 0AJ",
      "website": "http://thecastleinncambridge.com/",
      "phone": "01223 353194",
      "position": {
        "lat": 52.211945,
        "lon": 0.113552
      }
    },
    "ChampionOfTheThames": {
      "title": "Champion\nof the\nThames",
      "address": "68 King St, Cambridge CB1 1LN",
      "position": {
        "lat": 52.207328,
        "lon": 0.124451
      }
    },
    "ClarendonArms": {
      "title": "Clarendon\nArms",
      "address": "35-36 Clarendon St, Cambridge CB1 1JX",
      "phone": "01223 778272",
      "position": {
        "lat": 52.20465,
        "lon": 0.127679
      }
    },
    "CornerHouse": {
      "title": "Corner House",
      "address": "231 Newmarket Rd, Cambridge CB5 8JE",
      "phone": "01223 352047",
      "position": {
        "lat": 52.209485,
        "lon": 0.143369
      }
    },
    "Cricketers": {
      "title": "Cricketers",
      "address": "18 Melbourne Pl, Cambridge CB1 1EQ",
      "website": "http://lukthai.com/",
      "phone": "01223 778871",
      "position": {
        "lat": 52.204954,
        "lon": 0.129559
      }
    },
    "DevonshireArms": {
      "title": "Devonshire Arms",
      "address": "1B Devonshire Rd, Cambridge, CB1 2BH",
      "website": "https://www.individualpubs.co.uk/devonshire/",
      "phone": "01223 316610",
      "position": {
        "lat": 52.198924,
        "lon": 0.139079
      }
    },
    "Dobblers": {
      "title": "Dobblers",
      "address": "184 Sturton St, Cambridge, CB1 2QF",
      "website": "http://www.thedobblers.com/",
      "phone": "01223 576092",
      "position": {
        "lat": 52.205422,
        "lon": 0.140016
      }
    },
    "DukeOfCambridge": {
      "title": "Duke\nof Cambridge",
      "address": "176 East Rd, Cambridge CB1 1BG",
      "website": "http://www.dukeofcambridge-cambridge.co.uk/",
      "phone": "01223 304121",
      "position": {
        "lat": 52.204871,
        "lon": 0.133633
      }
    },
    "Eagle": {
      "title": "Eagle",
      "address": "8 Benet Street, Cambridge, CB2 3QN",
      "website": "http://www.eagle-cambridge.co.uk/",
      "phone": "01223 505020",
      "position": {
        "lat": 52.203974,
        "lon": 0.118044
      }
    },
    "EarlOfBeaconsfield": {
      "title": "Earl of Beaconsfield",
      "address": "133 Mill Rd, Cambridge CB1 3AA",
      "website": "http://www.earlofbeaconsfield.co.uk/",
      "phone": "01223 410703",
      "position": {
        "lat": 52.198414,
        "lon": 0.142186
      }
    },
    "EarlOfDerby": {
      "title": "Earl of Derby",
      "address": "129 Hills Rd, Cambridge CB2 1PG",
      "website": "http://www.theearlofderby.com/",
      "phone": "01223 352785",
      "position": {
        "lat": 52.192092,
        "lon": 0.134079
      }
    },
    "ElmTree": {
      "title": "Elm Tree",
      "address": "16A Orchard St, Cambridge CB1 1JT",
      "website": "http://www.theelmtreecambridge.co.uk/",
      "phone": "01223 502632",
      "position": {
        "lat": 52.205124,
        "lon": 0.129503
      }
    },
    "Empress": {
      "title": "Empress",
      "address": "72 Thoday St, Cambridge, CB1 3AX",
      "phone": "01223 247236",
      "position": {
        "lat": 52.199158,
        "lon": 0.147212
      }
    },
    "FlyingPig": {
      "title": "Flying Pig",
      "address": "106 Hills Rd, Cambridge, CB2 1LQ",
      "phone": "01223 354623",
      "position": {
        "lat": 52.194474,
        "lon": 0.131747
      }
    },
    "FortStGeorge": {
      "title": "Fort St George",
      "address": "Cambridge CB4 1HA",
      "website": "http://www.fortstgeorge-cambridge.co.uk/",
      "phone": "01223 305523",
      "position": {
        "lat": 52.212511,
        "lon": 0.127802
      }
    },
    "FreePress": {
      "title": "Free Press",
      "address": "7 Prospect Row, Cambridge, CB1 1DU",
      "website": "http://www.freepresspub.com/",
      "phone": "01223 368337",
      "position": {
        "lat": 52.20474,
        "lon": 0.130385
      }
    },
    "Geldart": {
      "title": "Geldart",
      "address": "1 Ainsworth St, Cambridge, CB1 2PF",
      "website": "http://www.the-geldart.co.uk/",
      "phone": "01223 314264",
      "position": {
        "lat": 52.203696,
        "lon": 0.142231
      }
    },
    "GoldenHind": {
      "title": "Golden Hind",
      "address": "355 Milton Rd, Cambridge, CB4 1SP",
      "website": "http://www.golden-hind-pub-cambridge.co.uk/",
      "phone": "01223 420816",
      "position": {
        "lat": 52.227922,
        "lon": 0.145524
      }
    },
    "GrainStore": {
      "title": "Grain Store",
      "address": "69-76 Regent St, Cambridge CB2 1AA",
      "website": "http://www.grainandhopstore-cambridge.co.uk/",
      "phone": "01223 323405",
      "position": {
        "lat": 52.200689,
        "lon": 0.126622
      }
    },
    "Granta": {
      "title": "Granta",
      "address": "14 Newnham Rd, Cambridge, CB3 9EX",
      "website": "http://www.granta-cambridge.co.uk/",
      "phone": "01223 505016",
      "position": {
        "lat": 52.1997,
        "lon": 0.11373
      }
    },
    "Grapes": {
      "title": "Grapes",
      "address": "19 Histon Rd, Cambridge CB4 3JB",
      "website": "http://www.thegrapescambridge.co.uk/",
      "phone": "01223 511974",
      "position": {
        "lat": 52.214963,
        "lon": 0.110773
      }
    },
    "GreenDragon": {
      "title": "Green Dragon",
      "address": "5 Water St, Cambridge CB4 1NZ",
      "website": "http://www.greendragon-cambridge.co.uk/",
      "phone": "01223 505035",
      "position": {
        "lat": 52.217958,
        "lon": 0.145433
      }
    },
    "GreenManGrantchester": {
      "title": "Green Man",
      "address": "59 High St, Grantchester, Cambridge CB3 9NF",
      "website": "http://www.thegreenmangrantchester.co.uk/",
      "phone": "01223 844669",
      "position": {
        "lat": 52.18004,
        "lon": 0.095174
      }
    },
    "GreenManTrumpington": {
      "title": "Green Man",
      "address": "55 High St, Cambridge, Trumpington CB2 9HZ",
      "website": "http://www.thegreenmantrumpington.com/",
      "phone": "01223 844903",
      "position": {
        "lat": 52.176564,
        "lon": 0.113054
      }
    },
    "Haymakers": {
      "title": "Haymakers",
      "address": "54 High St, Cambridge CB4 1NG",
      "website": "https://www.facebook.com/cambridgehaymakers",
      "phone": "01223 311077",
      "position": {
        "lat": 52.217339,
        "lon": 0.139439
      }
    },
    "Hopbine": {
      "title": "Hopbine",
      "address": "11-12 Fair St, Cambridge, CB1 1HA",
      "website": "http://www.thehopbine.co.uk/",
      "phone": "01223 367204",
      "position": {
        "lat": 52.207365,
        "lon": 0.12938
      }
    },
    "HudsonsAleHouse": {
      "title": "Hudson's Ale House",
      "address": "77 High St, Trumpington CB2 9HZ",
      "website": "http://www.hudsonalehouse.co.uk/",
      "phone": "01223 570042",
      "position": {
        "lat": 52.175125,
        "lon": 0.112693
      }
    },
    "JennyWren": {
      "title": "Jenny Wren",
      "address": "St Kilda Ave, Cambridge, CB4 2QA",
      "position": {
        "lat": 52.229577,
        "lon": 0.137331
      }
    },
    "KingsHead": {
      "title": "King's Head",
      "address": "50 High St, Fen Ditton, Cambridge CB5 8ST",
      "phone": "01223 293861",
      "position": {
        "lat": 52.2214166,
        "lon": 0.169868
      }
    },
    "KingstonArms": {
      "title": "Kingston Arms",
      "address": "33 Kingston St, Cambridge CB1 2NU",
      "website": "http://www.kingston-arms.co.uk/",
      "phone": "01223 319414",
      "position": {
        "lat": 52.200351,
        "lon": 0.139764
      }
    },
    "KingStreetRun": {
      "title": "King Street\nRun",
      "address": "86 King St, Cambridge CB1 1LN",
      "phone": "01223 328900",
      "position": {
        "lat": 52.20724,
        "lon": 0.125199
      }
    },
    "LiveAndLetLive": {
      "title": "Live and Let Live",
      "address": "40 Mawson Rd, Cambridge, CB1 2EA",
      "phone": "01223 460261",
      "position": {
        "lat": 52.199411,
        "lon": 0.135038
      }
    },
    "LordByronInn": {
      "title": "Lord Byron Inn",
      "address": "22 Church Ln, Trumpington, Cambridge CB2 9LA",
      "website": "http://www.lordbyroninn.co.uk/",
      "phone": "01223 845102",
      "position": {
        "lat": 52.174461,
        "lon": 0.110456
      }
    },
    "Maypole": {
      "title": "Maypole",
      "address": "20A Portugal Pl, Cambridge CB5 8AF",
      "website": "http://www.maypolefreehouse.co.uk/",
      "phone": "01223 352999",
      "position": {
        "lat": 52.209671,
        "lon": 0.119232
      }
    },
    "Med": {
      "title": "Med",
      "address": "Perne Rd, Cambridge, CB1 3RX",
      "phone": "01223 240808",
      "position": {
        "lat": 52.18913,
        "lon": 0.153427
      }
    },
    "Mill": {
      "title": "Mill",
      "address": "14 Mill Ln, Cambridge CB2 1RX",
      "website": "http://www.themillpubcambridge.com/",
      "phone": "01223 311829",
      "position": {
        "lat": 52.201552,
        "lon": 0.116128
      }
    },
    "MiltonArms": {
      "title": "Milton Arms",
      "address": "205 Milton Rd, Cambridge, CB4 1XG",
      "website": "http://www.hungryhorse.co.uk/locations/milton-arms",
      "phone": "01223 505012",
      "position": {
        "lat": 52.22268,
        "lon": 0.136693
      }
    },
    "Mitre": {
      "title": "Mitre",
      "address": "17 Bridge St, Cambridge CB2 1UF",
      "website": "http://www.nicholsonspubs.co.uk/restaurants/eastofengland/themitrecambridge",
      "phone": "01223 358403",
      "position": {
        "lat": 52.208852,
        "lon": 0.118185
      }
    },
    "OldSpring": {
      "title": "Old Spring",
      "address": "1 Ferry Path, Cambridge CB4 1HB",
      "website": "http://www.theoldspring.co.uk/",
      "phone": "01223 357228",
      "position": {
        "lat": 52.214393,
        "lon": 0.127719
      }
    },
    "PantonArms": {
      "title": "Panton\nArms",
      "address": "43 Panton St, Cambridge CB2 1HL",
      "phone": "01223 464351",
      "position": {
        "lat": 52.196491,
        "lon": 0.124987
      }
    },
    "Pickerel": {
      "title": "Pickerel",
      "address": "30 Magdalene St, Cambridge CB3 0AF",
      "website": "http://www.taylor-walker.co.uk/pub/pickerel-cambridge",
      "phone": "01223 355068",
      "position": {
        "lat": 52.209955,
        "lon": 0.116209
      }
    },
    "PintShop": {
      "title": "Pint Shop",
      "address": "10 Peas Hill, Cambridge CB2 3PN",
      "website": "http://pintshop.co.uk/",
      "phone": "01223 352293",
      "position": {
        "lat": 52.204194,
        "lon": 0.119142
      }
    },
    "Plough": {
      "title": "Plough",
      "address": "Green End, Cambridge, Cambridgshire CB5 8SX",
      "website": "http://www.theploughfenditton.co.uk/",
      "phone": "01223 293264",
      "position": {
        "lat": 52.224075,
        "lon": 0.16823
      }
    },
    "PortlandArms": {
      "title": "Portland Arms",
      "address": "129 Chesterton Rd, Cambridge CB4 3BA",
      "website": "http://www.theportlandarms.co.uk/",
      "phone": "01223 357268",
      "position": {
        "lat": 52.214426,
        "lon": 0.124525
      }
    },
    "PrinceRegent": {
      "title": "Prince Regent",
      "address": "91 Regent St, Cambridge, CB2 1AW",
      "website": "http://www.princeregent-cambridge.co.uk/",
      "phone": "01223 505030",
      "position": {
        "lat": 52.199934,
        "lon": 0.126909
      }
    },
    "Punter": {
      "title": "Punter",
      "place_id": "ChIJIwqxlbhw2EcRQYT52kWYXhQ",
      "address": "3 Pound Hill, Cambridge CB3 0AE",
      "website": "http://www.thepuntercambridge.com/",
      "phone": "01223 363322",
      "position": {
        "lat": 52.210552,
        "lon": 0.113281
      }
    },
    "QueenEdith": {
      "title": "Queen Edith",
      "address": "Wulfstan Way, Cambridge, CB1 8QN",
      "website": "https://www.individualpubs.co.uk/queenedith/",
      "phone": "01223 244536",
      "position": {
        "lat": 52.180264,
        "lon": 0.152927
      }
    },
    "RedBull": {
      "title": "Red Bull",
      "address": "11 Barton Rd, Newnham, Cambridge CB3 9JZ",
      "phone": "01223 300943",
      "position": {
        "lat": 52.196487,
        "lon": 0.108657
      }
    },
    "RedLion": {
      "title": "Red Lion",
      "address": "33 High St, Grantchester, Cambridge CB3 9NF",
      "website": "http://www.redliongrantchester.co.uk/",
      "phone": "01223 840121",
      "position": {
        "lat": 52.180343,
        "lon": 0.095603
      }
    },
    "Regal": {
      "title": "Regal",
      "address": "38-39 St Andrew's St, Cambridge, Cambridgeshire CB2 3AR",
      "website": "https://www.jdwetherspoon.com/pubs/all-pubs/england/cambridgeshire/the-regal-cambridge",
      "phone": "01223 366459",
      "position": {
        "lat": 52.202947,
        "lon": 0.123806
      }
    },
    "Rock": {
      "title": "Rock",
      "address": "200 Cherry Hinton Rd, Cambridge CB1 7AW",
      "website": "http://www.rock-cambridge.co.uk/",
      "phone": "01223 505005",
      "position": {
        "lat": 52.187503,
        "lon": 0.146716
      }
    },
    "RoyalStandard": {
      "title": "Royal Standard",
      "address": "292 Mill Rd, Cambridge CB1 3NL",
      "website": "http://royalstandardcambridge.com/",
      "phone": "01223 569065",
      "position": {
        "lat": 52.197,
        "lon": 0.149764
      }
    },
    "RupertBrook": {
      "title": "Rupert Brooke",
      "address": "2 Broadway, Grantchester CB3 9NQ",
      "website": "http://www.therupertbrooke.com/",
      "phone": "01223 841875",
      "position": {
        "lat": 52.181132,
        "lon": 0.093629
      }
    },
    "SalisburyArms": {
      "title": "Salisbury Arms",
      "address": "76 Tenison Rd, Cambridge, CB1 2DW",
      "website": "http://www.salisburyarmscambridge.co.uk/",
      "phone": "01223 576363",
      "position": {
        "lat": 52.198305,
        "lon": 0.135435
      }
    },
    "Ship": {
      "title": "Ship",
      "address": "Northfields Ave, Cambridge CB4 2LG",
      "phone": "01223 314445",
      "position": {
        "lat": 52.231224,
        "lon": 0.128837
      }
    },
    "SirIsaacNewton": {
      "title": "Sir Isaac Newton",
      "address": "84 Castle St, Cambridge CB3 0AJ",
      "website": "http://www.sirisaacnewton-cambridge.co.uk/",
      "phone": "01223 305555",
      "position": {
        "lat": 52.213338,
        "lon": 0.112072
      }
    },
    "SixBells": {
      "title": "Six Bells",
      "address": "11 Covent Garden, Cambridge CB1 2HS",
      "website": "http://sixbellspub.co.uk/",
      "phone": "01223 355559",
      "position": {
        "lat": 52.200395,
        "lon": 0.134442
      }
    },
    "StRadegund": {
      "title": "St Radegund",
      "address": "129 King St, Cambridge, CB1 1LD",
      "phone": "01223 311794",
      "position": {
        "lat": 52.207616,
        "lon": 0.126733
      }
    },
    "TramDepot": {
      "title": "Tram Depot",
      "address": "3-5 Dover St, Cambridge CB1 1DY",
      "website": "https://sites.google.com/site/tramdepotcambs/",
      "phone": "01223 324553",
      "position": {
        "lat": 52.204638,
        "lon": 0.132827
      }
    },
    "Waterman": {
      "title": "Waterman",
      "address": "32 Chesterton Rd, Cambridge CB4 3AX",
      "website": "http://www.thewaterman-cambridge.co.uk/",
      "phone": "01223 323813",
      "position": {
        "lat": 52.214166,
        "lon": 0.125526
      }
    },
    "WhiteSwan": {
      "title": "White Swan",
      "address": "109 Mill Rd, City Centre, Cambridge CB1 2AZ",
      "website": "http://www.whiteswancambridge.co.uk/",
      "position": {
        "lat": 52.199318,
        "lon": 0.139278
      }
    },
    "Wrestlers": {
      "title": "Wrestlers",
      "address": "Newmarket Rd, Cambridge CB5 8JE",
      "website": "http://www.thewrestlerscambridge.co.uk/",
      "phone": "01223 566554",
      "position": {
        "lat": 52.210964,
        "lon": 0.146358
      }
    }
  },
  "lines": [{
    "name": "Town",
    "label": "Town",
    "color": "#ffd300",
    "shiftCoords": [0, 0],
    "nodes": [{
      "coords": [14, -4],
      "name": "Mill",
      "labelPos": "S"
    }, {
      "coords": [23, -4],
      "marker": "interchange",
      "name": "Regal",
      "labelPos": "NW",
      "shiftCoords": [0, 0],
      "canonical": true
    }, {
      "coords": [30, -4]
    }, {
      "coords": [31, -3],
      "dir": "E"
    }, {
      "coords": [31, 2],
      "marker": "interchange",
      "name": "ClarendonArms",
      "labelPos": "E",
      "hide": true
    }, {
      "coords": [31, 6],
      "name": "StRadegund",
      "labelPos": "E"
    }, {
      "coords": [31, 9]
    }, {
      "coords": [30, 10],
      "dir": "N"
    }, {
      "coords": [28, 10],
      "name": "KingStreetRun",
      "labelPos": "N"
    }, {
      "coords": [27, 10],
      "name": "ChampionOfTheThames",
      "labelPos": "S"
    }, {
      "coords": [23, 10],
      "marker": "interchange",
      "name": "BrewHouse",
      "labelPos": "SW",
      "shiftCoords": [0, 0.5],
      "canonical": true
    }, {
      "coords": [14, 10],
      "name": "Mitre",
      "labelPos": "N"
    }, {
      "coords": [12, 10],
      "name": "BaronOfBeef",
      "labelPos": "S",
      "canonical": true
    }, {
      "coords": [10, 10]
    }, {
      "coords": [9, 9],
      "dir": "W"
    }, {
      "coords": [9, 2],
      "marker": "interchange",
      "name": "Eagle",
      "labelPos": "NW",
      "hide": true
    }, {
      "coords": [9, -2],
      "name": "Anchor",
      "labelPos": "E"
    }, {
      "coords": [9, -3]
    }, {
      "coords": [10, -4],
      "dir": "S"
    }, {
      "coords": [14, -4]
    }]
  }, {
    "name": "Castle",
    "label": "Castle",
    "color": "#b36305",
    "shiftCoords": [0, 1],
    "nodes": [{
      "coords": [10, 33],
      "name": "CarltonArms",
      "labelPos": "N"
    }, {
      "coords": [1, 33]
    }, {
      "coords": [-1, 32]
    }, {
      "coords": [-3, 30],
      "name": "CarpentersArms",
      "labelPos": "NW"
    }, {
      "coords": [-5, 28],
      "name": "Grapes",
      "labelPos": "NW"
    }, {
      "coords": [-7, 26]
    }, {
      "coords": [-8, 24]
    }, {
      "coords": [-8, 22]
    }, {
      "coords": [-8, 21]
    }, {
      "coords": [-7, 19],
      "name": "SirIsaacNewton",
      "labelPos": "SW"
    }, {
      "coords": [-5, 17],
      "name": "Architect",
      "labelPos": "SW"
    }, {
      "coords": [-3, 15],
      "name": "CastleInn",
      "labelPos": "NE"
    }, {
      "coords": [-1, 13],
      "name": "Punter",
      "labelPos": "SW"
    }, {
      "coords": [1, 11]
    }, {
      "coords": [3, 10],
      "marker": "interchange",
      "name": "Pickerel",
      "labelPos": "SW"
    }, {
      "coords": [12, 10],
      "marker": "interchange",
      "name": "BaronOfBeef",
      "labelPos": "NW"
    }, {
      "coords": [14, 10],
      "name": "Mitre",
      "labelPos": "N",
      "canonical": true
    }, {
      "coords": [23, 10],
      "marker": "interchange",
      "name": "BrewHouse",
      "labelPos": "W",
      "hide": true
    }]
  }, {
    "name": "Riverbank",
    "label": "Riverbank",
    "color": "#0098d4",
    "shiftCoords": [0, 0],
    "nodes": [{
      "coords": [3, -4],
      "marker": "interchange",
      "name": "Granta",
      "labelPos": "SW",
      "shiftCoords": [0, -1],
      "canonical": true
    }, {
      "coords": [3, 10],
      "marker": "interchange",
      "name": "Pickerel",
      "labelPos": "SW",
      "hide": true
    }, {
      "coords": [3, 18]
    }, {
      "coords": [4, 20]
    }, {
      "coords": [6, 22]
    }, {
      "coords": [8, 23]
    }, {
      "coords": [10, 23],
      "name": "Boathouse",
      "labelPos": "S"
    }, {
      "coords": [13, 23],
      "name": "PortlandArms",
      "labelPos": "N"
    }, {
      "coords": [17, 23],
      "name": "Waterman",
      "labelPos": "S"
    }, {
      "coords": [23, 23],
      "marker": "interchange",
      "name": "OldSpring",
      "labelPos": "S",
      "hide": true
    }, {
      "coords": [38, 23],
      "name": "Haymakers",
      "labelPos": "N"
    }, {
      "coords": [42, 23],
      "name": "GreenDragon",
      "labelPos": "S"
    }]
  }, {
    "name": "Backstreet",
    "label": "Backstreet",
    "color": "#e32017",
    "shiftCoords": [0, 0],
    "nodes": [{
      "coords": [9, 2],
      "marker": "interchange",
      "name": "Eagle",
      "labelPos": "NE",
      "canonical": true
    }, {
      "coords": [16, 2],
      "name": "BathHouse",
      "labelPos": "S"
    }, {
      "coords": [19, 2],
      "name": "PintShop",
      "labelPos": "N"
    }, {
      "coords": [31, 2],
      "marker": "interchange",
      "name": "ClarendonArms",
      "labelPos": "SW",
      "canonical": true
    }, {
      "coords": [39, 2],
      "marker": "interchange",
      "name": "ElmTree",
      "labelPos": "NW",
      "canonical": true
    }, {
      "coords": [43, 2],
      "name": "Cricketers",
      "labelPos": "S"
    }, {
      "coords": [47, 2],
      "name": "FreePress",
      "labelPos": "N"
    }, {
      "coords": [50, 2],
      "name": "TramDepot",
      "labelPos": "S"
    }, {
      "coords": [54, 2],
      "name": "DukeOfCambridge",
      "labelPos": "N"
    }, {
      "coords": [57, 2],
      "name": "Dobblers",
      "labelPos": "S"
    }, {
      "coords": [62, 2],
      "name": "BlueMoon",
      "labelPos": "N"
    }, {
      "coords": [67, 2],
      "name": "AlexandraArms",
      "labelPos": "S"
    }, {
      "coords": [69, 2],
      "name": "Geldart",
      "labelPos": "N"
    }, {
      "coords": [70, 2]
    }, {
      "coords": [72, 1]
    }, {
      "coords": [74, -1]
    }, {
      "coords": [76, -3],
      "name": "CambridgeBlue",
      "labelPos": "NE"
    }, {
      "coords": [78, -5],
      "name": "KingstonArms",
      "labelPos": "NE"
    }]
  }, {
    "name": "Grantchester",
    "label": "Grantchester",
    "color": "#00782a",
    "shiftCoords": [1, -1],
    "nodes": [{
      "coords": [-27, -22],
      "name": "GreenManGrantchester",
      "labelPos": "W"
    }, {
      "coords": [-27, -20],
      "name": "RedLion",
      "labelPos": "W"
    }, {
      "coords": [-27, -18],
      "name": "RupertBrook",
      "labelPos": "W"
    }, {
      "coords": [-27, -16],
      "name": "BlueBallInn",
      "labelPos": "W"
    }, {
      "coords": [-27, -11]
    }, {
      "coords": [-26, -9]
    }, {
      "coords": [-24, -7]
    }, {
      "coords": [-22, -5]
    }, {
      "coords": [-20, -4]
    }, {
      "coords": [-3, -4],
      "name": "RedBull",
      "labelPos": "N"
    }, {
      "coords": [3, -4],
      "marker": "interchange",
      "name": "Granta",
      "labelPos": "S",
      "hide": true
    }, {
      "coords": [14, -4],
      "name": "Mill",
      "labelPos": "S",
      "shiftCoords": [0, -1]
    }, {
      "coords": [29, -4],
      "marker": "interchange",
      "name": "Regal",
      "labelPos": "S",
      "hide": true
    }, {
      "coords": [30, -4]
    }, {
      "coords": [32, -3]
    }, {
      "coords": [42, 7],
      "name": "Hopbine",
      "labelPos": "NW"
    }, {
      "coords": [44, 9],
      "name": "BurleighArms",
      "labelPos": "NW"
    }, {
      "coords": [46, 11]
    }, {
      "coords": [48, 12]
    }, {
      "coords": [52, 12],
      "name": "CornerHouse",
      "labelPos": "S"
    }, {
      "coords": [54, 12],
      "name": "Wrestlers",
      "labelPos": "N"
    }, {
      "coords": [60, 12]
    }, {
      "coords": [62, 12]
    }, {
      "coords": [64, 13]
    }, {
      "coords": [86, 36],
      "name": "AncientShepherds",
      "labelPos": "SE"
    }, {
      "coords": [88, 38],
      "name": "KingsHead",
      "labelPos": "SE"
    }, {
      "coords": [90, 40],
      "name": "Plough",
      "labelPos": "SE"
    }]
  }, {
    "name": "MillRoad",
    "label": "Mill Road",
    "color": "#a0a5a9",
    "shiftCoords": [0, 0],
    "nodes": [{
      "coords": [39, 2]
    }, {
      "coords": [39, -2]
    }, {
      "coords": [40, -4]
    }, {
      "coords": [42, -6],
      "name": "SixBells",
      "labelPos": "NE"
    }, {
      "coords": [44, -8],
      "name": "LiveAndLetLive",
      "labelPos": "NE"
    }, {
      "coords": [46, -10],
      "name": "SalisburyArms",
      "labelPos": "NE"
    }, {
      "coords": [48, -12],
      "name": "WhiteSwan",
      "labelPos": "NE"
    }, {
      "coords": [50, -14],
      "name": "DevonshireArms",
      "labelPos": "SW"
    }, {
      "coords": [52, -16],
      "name": "EarlOfBeaconsfield",
      "labelPos": "NE"
    }, {
      "coords": [54, -18],
      "name": "Empress",
      "labelPos": "NE"
    }, {
      "coords": [56, -20],
      "name": "RoyalStandard",
      "labelPos": "SW"
    }, {
      "coords": [58, -22],
      "name": "Brook",
      "labelPos": "SW"
    }]
  }, {
    "name": "HillsRoad",
    "label": "Hills Road",
    "color": "#9b0056",
    "shiftCoords": [0, -2],
    "nodes": [{
      "coords": [14, -4],
      "name": "Mill",
      "labelPos": "S",
      "shiftCoords": [0, -2],
      "canonical": true
    }, {
      "coords": [27, -4]
    }, {
      "coords": [29, -5]
    }, {
      "coords": [31, -7],
      "name": "GrainStore",
      "labelPos": "NE"
    }, {
      "coords": [33, -9],
      "name": "PrinceRegent",
      "labelPos": "NE"
    }, {
      "coords": [37, -13],
      "name": "FlyingPig",
      "labelPos": "NE"
    }, {
      "coords": [39, -15],
      "name": "EarlOfDerby",
      "labelPos": "SW"
    }, {
      "coords": [41, -17],
      "name": "Rock",
      "labelPos": "SW"
    }, {
      "coords": [47, -23],
      "name": "Med",
      "labelPos": "SW"
    }, {
      "coords": [49, -25]
    }, {
      "coords": [51, -26]
    }, {
      "coords": [53, -26],
      "name": "QueenEdith",
      "labelPos": "S"
    }]
  }, {
    "name": "Northern",
    "label": "Northern",
    "color": "#000000",
    "shiftCoords": [0, 0],
    "nodes": [{
      "coords": [-6, -36],
      "name": "LordByronInn",
      "labelPos": "SE"
    }, {
      "coords": [-3, -33],
      "name": "HudsonsAleHouse",
      "labelPos": "SE"
    }, {
      "coords": [-1, -31],
      "name": "GreenManTrumpington",
      "labelPos": "SE"
    }, {
      "coords": [19, -11],
      "name": "Alma",
      "labelPos": "SE"
    }, {
      "coords": [22, -8],
      "name": "PantonArms",
      "labelPos": "SE"
    }, {
      "coords": [23, -6]
    }, {
      "coords": [23, -4],
      "marker": "interchange",
      "name": "Regal",
      "labelPos": "NE",
      "shiftCoords": [0, -1],
      "hide": true
    }, {
      "coords": [23, 10],
      "marker": "interchange",
      "name": "BrewHouse",
      "labelPos": "W",
      "hide": true
    }, {
      "coords": [23, 13],
      "name": "Maypole",
      "labelPos": "W"
    }, {
      "coords": [23, 15],
      "name": "FortStGeorge",
      "labelPos": "E"
    }, {
      "coords": [23, 23],
      "marker": "interchange",
      "name": "OldSpring",
      "labelPos": "SE",
      "canonical": true
    }, {
      "coords": [23, 25]
    }, {
      "coords": [24, 27]
    }, {
      "coords": [26, 29]
    }, {
      "coords": [28, 30]
    }, {
      "coords": [30, 30],
      "name": "MiltonArms",
      "labelPos": "N"
    }, {
      "coords": [36, 30],
      "name": "GoldenHind",
      "labelPos": "S"
    }, {
      "coords": [38, 30]
    }, {
      "coords": [39, 31],
      "dir": "E"
    }, {
      "coords": [39, 33],
      "name": "JennyWren",
      "labelPos": "E"
    }, {
      "coords": [39, 42],
      "name": "Ship",
      "labelPos": "E"
    }]
  }],
  "river": {
    "name": "River",
    "label": "River",
    "shiftCoords": [0, 0],
    "nodes": [{
      "coords": [-14, -28]
    }, {
      "coords": [5, -8]
    }, {
      "coords": [6, -6]
    }, {
      "coords": [6, 12]
    }, {
      "coords": [7, 14]
    }, {
      "coords": [9, 16]
    }, {
      "coords": [11, 17]
    }, {
      "coords": [50, 17]
    }, {
      "coords": [52, 18]
    }, {
      "coords": [76, 42]
    }]
  }
}
